{"dailygameschedule":{"lastUpdatedOn":"2017-07-18 1:23:27 PM","gameentry":[{"id":"39825","date":"2017-07-20","time":"12:10PM","awayTeam":{"ID":"133","City":"St. Louis","Name":"Cardinals","Abbreviation":"STL"},"homeTeam":{"ID":"127","City":"New York","Name":"Mets","Abbreviation":"NYM"},"location":"Citi Field"},{"id":"37881","date":"2017-07-20","time":"12:35PM","awayTeam":{"ID":"140","City":"Arizona","Name":"Diamondbacks","Abbreviation":"ARI"},"homeTeam":{"ID":"135","City":"Cincinnati","Name":"Reds","Abbreviation":"CIN"},"location":"Great American Ball Park"},{"id":"39698","date":"2017-07-20","time":"12:35PM","awayTeam":{"ID":"134","City":"Milwaukee","Name":"Brewers","Abbreviation":"MIL"},"homeTeam":{"ID":"132","City":"Pittsburgh","Name":"Pirates","Abbreviation":"PIT"},"location":"PNC Park"},{"id":"38347","date":"2017-07-20","time":"1:35PM","awayTeam":{"ID":"112","City":"Toronto","Name":"Blue Jays","Abbreviation":"TOR"},"homeTeam":{"ID":"113","City":"Boston","Name":"Red Sox","Abbreviation":"BOS"},"location":"Fenway Park"},{"id":"38197","date":"2017-07-20","time":"7:05PM","awayTeam":{"ID":"121","City":"Texas","Name":"Rangers","Abbreviation":"TEX"},"homeTeam":{"ID":"111","City":"Baltimore","Name":"Orioles","Abbreviation":"BAL"},"location":"Oriole Park at Camden Yards"},{"id":"39107","date":"2017-07-20","time":"8:15PM","awayTeam":{"ID":"117","City":"Detroit","Name":"Tigers","Abbreviation":"DET"},"homeTeam":{"ID":"118","City":"Kansas City","Name":"Royals","Abbreviation":"KC"},"location":"Kauffman Stadium"},{"id":"38039","date":"2017-07-20","time":"10:10PM","awayTeam":{"ID":"130","City":"Atlanta","Name":"Braves","Abbreviation":"ATL"},"homeTeam":{"ID":"137","City":"Los Angeles","Name":"Dodgers","Abbreviation":"LAD"},"location":"Dodger Stadium"},{"id":"39892","date":"2017-07-20","time":"10:10PM","awayTeam":{"ID":"114","City":"New York","Name":"Yankees","Abbreviation":"NYY"},"homeTeam":{"ID":"123","City":"Seattle","Name":"Mariners","Abbreviation":"SEA"},"location":"Safeco Field"},{"id":"40093","date":"2017-07-20","time":"10:15PM","awayTeam":{"ID":"139","City":"San Diego","Name":"Padres","Abbreviation":"SD"},"homeTeam":{"ID":"136","City":"San Francisco","Name":"Giants","Abbreviation":"SF"},"location":"AT&T Park"}]}}