{"dailygameschedule":{"lastUpdatedOn":"2017-07-19 3:23:39 PM","gameentry":[{"id":"38491","date":"2017-07-21","time":"2:20PM","awayTeam":{"ID":"133","City":"St. Louis","Name":"Cardinals","Abbreviation":"STL"},"homeTeam":{"ID":"131","City":"Chicago","Name":"Cubs","Abbreviation":"CHC"},"location":"Wrigley Field"},{"id":"38198","date":"2017-07-21","time":"7:05PM","awayTeam":{"ID":"122","City":"Houston","Name":"Astros","Abbreviation":"HOU"},"homeTeam":{"ID":"111","City":"Baltimore","Name":"Orioles","Abbreviation":"BAL"},"location":"Oriole Park at Camden Yards"},{"id":"39699","date":"2017-07-21","time":"7:05PM","awayTeam":{"ID":"134","City":"Milwaukee","Name":"Brewers","Abbreviation":"MIL"},"homeTeam":{"ID":"129","City":"Philadelphia","Name":"Phillies","Abbreviation":"PHI"},"location":"Citizens Bank Park"},{"id":"38623","date":"2017-07-21","time":"7:10PM","awayTeam":{"ID":"128","City":"Miami","Name":"Marlins","Abbreviation":"MIA"},"homeTeam":{"ID":"135","City":"Cincinnati","Name":"Reds","Abbreviation":"CIN"},"location":"Great American Ball Park"},{"id":"38757","date":"2017-07-21","time":"7:10PM","awayTeam":{"ID":"112","City":"Toronto","Name":"Blue Jays","Abbreviation":"TOR"},"homeTeam":{"ID":"116","City":"Cleveland","Name":"Indians","Abbreviation":"CLE"},"location":"Progressive Field"},{"id":"39826","date":"2017-07-21","time":"7:10PM","awayTeam":{"ID":"125","City":"Oakland","Name":"Athletics","Abbreviation":"OAK"},"homeTeam":{"ID":"127","City":"New York","Name":"Mets","Abbreviation":"NYM"},"location":"Citi Field"},{"id":"40188","date":"2017-07-21","time":"7:10PM","awayTeam":{"ID":"121","City":"Texas","Name":"Rangers","Abbreviation":"TEX"},"homeTeam":{"ID":"115","City":"Tampa Bay","Name":"Rays","Abbreviation":"TB"},"location":"Tropicana Field"},{"id":"39108","date":"2017-07-21","time":"8:10PM","awayTeam":{"ID":"117","City":"Detroit","Name":"Tigers","Abbreviation":"DET"},"homeTeam":{"ID":"120","City":"Minnesota","Name":"Twins","Abbreviation":"MIN"},"location":"Target Field"},{"id":"39000","date":"2017-07-21","time":"8:15PM","awayTeam":{"ID":"119","City":"Chicago","Name":"White Sox","Abbreviation":"CWS"},"homeTeam":{"ID":"118","City":"Kansas City","Name":"Royals","Abbreviation":"KC"},"location":"Kauffman Stadium"},{"id":"38883","date":"2017-07-21","time":"8:40PM","awayTeam":{"ID":"132","City":"Pittsburgh","Name":"Pirates","Abbreviation":"PIT"},"homeTeam":{"ID":"138","City":"Colorado","Name":"Rockies","Abbreviation":"COL"},"location":"Coors Field"},{"id":"37882","date":"2017-07-21","time":"9:40PM","awayTeam":{"ID":"126","City":"Washington","Name":"Nationals","Abbreviation":"WAS"},"homeTeam":{"ID":"140","City":"Arizona","Name":"Diamondbacks","Abbreviation":"ARI"},"location":"Chase Field"},{"id":"38348","date":"2017-07-21","time":"10:07PM","awayTeam":{"ID":"113","City":"Boston","Name":"Red Sox","Abbreviation":"BOS"},"homeTeam":{"ID":"124","City":"Los Angeles","Name":"Angels","Abbreviation":"LAA"},"location":"Angel Stadium of Anaheim"},{"id":"38040","date":"2017-07-21","time":"10:10PM","awayTeam":{"ID":"130","City":"Atlanta","Name":"Braves","Abbreviation":"ATL"},"homeTeam":{"ID":"137","City":"Los Angeles","Name":"Dodgers","Abbreviation":"LAD"},"location":"Dodger Stadium"},{"id":"39893","date":"2017-07-21","time":"10:10PM","awayTeam":{"ID":"114","City":"New York","Name":"Yankees","Abbreviation":"NYY"},"homeTeam":{"ID":"123","City":"Seattle","Name":"Mariners","Abbreviation":"SEA"},"location":"Safeco Field"},{"id":"40094","date":"2017-07-21","time":"10:15PM","awayTeam":{"ID":"139","City":"San Diego","Name":"Padres","Abbreviation":"SD"},"homeTeam":{"ID":"136","City":"San Francisco","Name":"Giants","Abbreviation":"SF"},"location":"AT&T Park"}]}}